{
  "spots": [
    {
      "name": "Hendaye Plage",
      "latitude": 43.3691,
      "longitude": -1.7733
    },
    {
      "name": "Les Deux Jumeaux",
      "latitude": 43.3942,
      "longitude": -1.7717
    },
    {
      "name": "Erromardie",
      "latitude": 43.3967,
      "longitude": -1.6456
    },
    {
      "name": "Cenitz",
      "latitude": 43.4047,
      "longitude": -1.6261
    },
    {
      "name": "Guethary",
      "latitude": 43.4139,
      "longitude": -1.6361
    },
    {
      "name": "Avalanche",
      "latitude": 43.4147,
      "longitude": -1.6272
    },
    {
      "name": "Parlementia",
      "latitude": 43.4099,
      "longitude": -1.5911
    },
    {
      "name": "Aguilar",
      "latitude": 43.4003,
      "longitude": -1.5794
    },
    {
      "name": "Biarritz Cote des Basques",
      "latitude": 43.4789,
      "longitude": -1.5586
    },
    {
      "name": "Biarritz Grande Plage",
      "latitude": 43.4719,
      "longitude": -1.5567
    },
    {
      "name": "Biarritz Miramar",
      "latitude": 43.4692,
      "longitude": -1.5617
    },
    {
      "name": "Marbella",
      "latitude": 43.4736,
      "longitude": -1.5542
    },
    {
      "name": "La Milady",
      "latitude": 43.4822,
      "longitude": -1.5478
    },
    {
      "name": "Ilbarritz",
      "latitude": 43.4772,
      "longitude": -1.5722
    },
    {
      "name": "Bidart Centre",
      "latitude": 43.4236,
      "longitude": -1.5943
    },
    {
      "name": "Uhabia",
      "latitude": 43.4258,
      "longitude": -1.5867
    },
    {
      "name": "Les Alcyons",
      "latitude": 43.4297,
      "longitude": -1.5806
    },
    {
      "name": "Bakio",
      "latitude": 43.4306,
      "longitude": -1.5722
    },
    {
      "name": "Les Culs Nus",
      "latitude": 43.6853,
      "longitude": -1.4405
    },
    {
      "name": "La Nord",
      "latitude": 43.6973,
      "longitude": -1.4432
    },
    {
      "name": "La Sud",
      "latitude": 43.6931,
      "longitude": -1.4428
    },
    {
      "name": "Les Estagnots",
      "latitude": 43.6942,
      "longitude": -1.4314
    },
    {
      "name": "Le Penon",
      "latitude": 43.705,
      "longitude": -1.4358
    },
    {
      "name": "La Caserne",
      "latitude": 43.7103,
      "longitude": -1.4336
    }
  ]
}
